[
  {
    "name": "Live Jazz on Wednesdays with Myles Hayes at The Ritz-Carlton, Chicago",
    "description": "Join local jazz musician Myles Hayes every Wednesday from 5 – 8:30 p.m. at The Ritz-Carlton, Chicago and enjoy live music, drinks and bites. Guests…",
    "image": "https://cdn.choosechicago.com/uploads/2023/05/Screen-Shot-2023-05-04-at-1.13.00-PM-900x505.png",
    "url": "https://www.choosechicago.com/event/live-jazz-on-wednesdays-with-myles-hayes-at-the-ritz-carlton-chicago/2023-11-22/",
    "start_date": "2023-11-22T23:00:00Z",
    "end_date": "2023-11-23T02:30:00Z",
    "location": {
      "name": "The Ritz-Carlton",
      "address": "160 East Pearson Street at Water Tower Place",
      "city": "CHICAGO",
      "state": "IL",
      "gmaps": {
        "lat": 41.8977726,
        "lng": -87.622398,
        "formatted_address": "At Water Tower Place, 160 E Pearson St, Chicago, IL 60611, United States",
        "name": "The Ritz-Carlton, Chicago",
        "place_id": "ChIJXajiYVTTD4gRriAjGeRH7tQ"
      },
      "gmaps_tries": 1,
      "pk": 27
    },
    "pk": 33
  },
  {
    "name": "Teatro Zinzanni",
    "description": "A spectacle of unforgettable performances, fantastic cuisine, and premium entertainment await you within the velvet walls of the Antique Belgian Spiegeltent in the heart of…",
    "image": "https://cdn.choosechicago.com/uploads/2019/08/placehoder-900x425.jpg",
    "url": "https://www.choosechicago.com/event/teatro-zinzanni-4/2023-11-22/",
    "start_date": "2023-11-23T00:30:00Z",
    "end_date": "2023-11-23T04:00:00Z",
    "location": {
      "name": "32 W Randolph St",
      "address": "32 W Randolph St",
      "city": "CHICAGO",
      "state": "IL",
      "gmaps": {
        "lat": 41.884718,
        "lng": -87.629058,
        "formatted_address": "32 W Randolph St, Chicago, IL 60601, USA",
        "name": "32 W Randolph St",
        "place_id": "ChIJH37_rrosDogR7OqirL-z1RM"
      },
      "gmaps_tries": 1,
      "pk": 28
    },
    "pk": 34
  },
  {
    "name": "Teatro Zinzanni",
    "description": "A spectacle of unforgettable performances, fantastic cuisine, and premium entertainment await you within the velvet walls of the Antique Belgian Spiegeltent in the heart of…",
    "image": "https://cdn.choosechicago.com/uploads/2019/08/placehoder-900x425.jpg",
    "url": "https://www.choosechicago.com/event/teatro-zinzanni-4/2023-11-23/",
    "start_date": "2023-11-24T00:30:00Z",
    "end_date": "2023-11-24T04:00:00Z",
    "location": {
      "name": "32 W Randolph St",
      "address": "32 W Randolph St",
      "city": "CHICAGO",
      "state": "IL",
      "gmaps": {
        "lat": 41.884718,
        "lng": -87.629058,
        "formatted_address": "32 W Randolph St, Chicago, IL 60601, USA",
        "name": "32 W Randolph St",
        "place_id": "ChIJH37_rrosDogR7OqirL-z1RM"
      },
      "gmaps_tries": 1,
      "pk": 28
    },
    "pk": 35
  },
  {
    "name": "Soumates at iO: Improv Duo Showcase",
    "description": "Chemistry is everything, especially in comedy! Our weekly Thursday night showcase features some of Chicago’s best established improv duos, and a performance with a brand…Lincoln Park",
    "image": "https://cdn.choosechicago.com/uploads/2023/04/Tosca-Modern-Soul-Buddies-Hoodie-800x800.png",
    "url": "https://www.choosechicago.com/event/soumates-at-io-improv-duo-showcase/2023-11-23/",
    "start_date": "2023-11-24T04:00:00Z",
    "end_date": "2023-11-24T05:00:00Z",
    "location": {
      "name": "iO Theater",
      "address": "1501 N. Kingsbury St.",
      "city": "CHICAGO",
      "state": "IL",
      "gmaps": {
        "lat": 41.908536,
        "lng": -87.6519617,
        "formatted_address": "1501 N Kingsbury St, Chicago, IL 60642, United States",
        "name": "The iO Theater",
        "place_id": "ChIJE9IESSTTD4gRFXNotCW2Sf0"
      },
      "gmaps_tries": 1,
      "pk": 29
    },
    "pk": 36
  },
  {
    "name": "Teatro Zinzanni",
    "description": "A spectacle of unforgettable performances, fantastic cuisine, and premium entertainment await you within the velvet walls of the Antique Belgian Spiegeltent in the heart of…",
    "image": "https://cdn.choosechicago.com/uploads/2019/08/placehoder-900x425.jpg",
    "url": "https://www.choosechicago.com/event/teatro-zinzanni-4/2023-11-24/",
    "start_date": "2023-11-25T00:30:00Z",
    "end_date": "2023-11-25T04:00:00Z",
    "location": {
      "name": "32 W Randolph St",
      "address": "32 W Randolph St",
      "city": "CHICAGO",
      "state": "IL",
      "gmaps": {
        "lat": 41.884718,
        "lng": -87.629058,
        "formatted_address": "32 W Randolph St, Chicago, IL 60601, USA",
        "name": "32 W Randolph St",
        "place_id": "ChIJH37_rrosDogR7OqirL-z1RM"
      },
      "gmaps_tries": 1,
      "pk": 28
    },
    "pk": 37
  },
  {
    "name": "Improvised DCOM",
    "description": "Dive into the nostalgia of Disney Channel Original Movies with the cast of Improvised DCOM! This All Star cast is bringing screen to stage every…Lincoln Park",
    "image": "https://cdn.choosechicago.com/uploads/2023/09/IDCOM_Key-Visual-1-900x506.jpg",
    "url": "https://www.choosechicago.com/event/improvised-dcom-2/2023-11-24/",
    "start_date": "2023-11-25T01:00:00Z",
    "end_date": "2023-11-25T02:00:00Z",
    "location": {
      "name": "iO Theater",
      "address": "1501 N. Kingsbury St.",
      "city": "CHICAGO",
      "state": "IL",
      "gmaps": {
        "lat": 41.908536,
        "lng": -87.6519617,
        "formatted_address": "1501 N Kingsbury St, Chicago, IL 60642, United States",
        "name": "The iO Theater",
        "place_id": "ChIJE9IESSTTD4gRFXNotCW2Sf0"
      },
      "gmaps_tries": 1,
      "pk": 29
    },
    "pk": 38
  },
  {
    "name": "The Infinite Wrench",
    "description": "Don’t miss the longest running late-night show in Chicago! At The Infinite Wrench you’ll see 30 original plays in 60 minutes written and performed by…Andersonville",
    "image": "https://cdn.choosechicago.com/uploads/2023/04/TIW_promo-900x400.png",
    "url": "https://www.choosechicago.com/event/the-infinite-wrench/2023-11-24/",
    "start_date": "2023-11-25T01:00:00Z",
    "end_date": "2023-11-25T02:00:00Z",
    "location": {
      "name": "Neo-Futurist Theater",
      "address": "5153 N. Ashland Ave.",
      "city": "CHICAGO",
      "state": "IL",
      "gmaps": {
        "lat": 41.9760012,
        "lng": -87.6692801,
        "formatted_address": "5153 N Ashland Ave, Chicago, IL 60640, United States",
        "name": "The Neo-Futurists",
        "place_id": "ChIJnVQXiifSD4gR6kTLZjehw4A"
      },
      "gmaps_tries": 1,
      "pk": 30
    },
    "pk": 39
  },
  {
    "name": "Fantasia in Concert",
    "description": "Join us for a thrilling performance of Disney’s groundbreaking marriage of symphonic music and animation, Fantasia. Magnificent repertoire from the original 1940 version and Fantasia 2000, including The…",
    "image": "https://cdn.choosechicago.com/uploads/2023/10/9soejpvm-900x497.png",
    "url": "https://www.choosechicago.com/event/fantasia-in-concert/2023-11-24/",
    "start_date": "2023-11-25T01:30:00Z",
    "end_date": "2023-11-25T03:30:00Z",
    "location": {
      "name": "Chicago Symphony Orchestra",
      "address": "220 S. Michigan, Chicago, IL, 60604",
      "city": "CHICAGO",
      "state": "IL",
      "gmaps": {
        "lat": 41.8789876,
        "lng": -87.625065,
        "formatted_address": "220 S Michigan Ave, Chicago, IL 60604, United States",
        "name": "Chicago Symphony Orchestra",
        "place_id": "ChIJ03xbwqMsDogRn80hvd2Xg18"
      },
      "gmaps_tries": 1,
      "pk": 31
    },
    "pk": 40
  },
  {
    "name": "Love Changes Everything: A 75th Birthday Celebration of Andrew Lloyd Webber",
    "description": "Come celebrate Andrew Lloyd Webber’s birthday with a concert featuring music from all of his great musicals, Joseph and the Amazing Technicolor Dreamcoat, Jesus Christ…",
    "image": "https://cdn.choosechicago.com/uploads/2023/10/52426.jpeg",
    "url": "https://www.choosechicago.com/event/love-changes-everything-a-75th-birthday-celebration-of-andrew-lloyd-webber/",
    "start_date": "2023-11-25T01:30:00Z",
    "end_date": "2023-11-25T03:30:00Z",
    "location": {
      "name": "Skokie Theatre",
      "address": "7924 Lincoln Ave, Skokie, IL, 60077",
      "city": "CHICAGO",
      "state": "IL",
      "gmaps": {
        "lat": 42.0253807,
        "lng": -87.7557782,
        "formatted_address": "7924 Lincoln Ave, Skokie, IL 60077, United States",
        "name": "Skokie Theatre - Performing Arts Center",
        "place_id": "ChIJ4bfTEhjPD4gRvrCvmKlzUCo"
      },
      "gmaps_tries": 1,
      "pk": 32
    },
    "pk": 41
  },
  {
    "name": "Hedex",
    "description": "Jack Hedges, also known as Hedex, is a 21 year old Drum and Bass DJ/Producer from Cambridgeshire, UK, signed to Dubz Audio. From finding his…",
    "image": "https://cdn.choosechicago.com/uploads/2023/11/381951776_896214192042366_2076929945324135001_n-900x506.jpg",
    "url": "https://www.choosechicago.com/event/hedex/",
    "start_date": "2023-11-25T02:30:00Z",
    "end_date": "2023-11-25T05:30:00Z",
    "location": {
      "name": "1st Ward at Chop Shop",
      "address": "2033 W. North Ave",
      "city": "CHICAGO",
      "state": "IL",
      "gmaps": {
        "lat": 41.910152,
        "lng": -87.6787659,
        "formatted_address": "2033 W North Ave, Chicago, IL 60647, United States",
        "name": "Chop Shop",
        "place_id": "ChIJM1I4uLjSD4gRMTnmnLFdHyE"
      },
      "gmaps_tries": 1,
      "pk": 33
    },
    "pk": 42
  },
  {
    "name": "Voila: The Improvised Musical",
    "description": "iO Chicago presents: a fully made-up, off-off-off Broadway style musical every Friday at 10pm in the Fremont Theater. Spend your Friday night with us. See…",
    "image": "https://cdn.choosechicago.com/uploads/2023/11/voila-12723_52654888728_o-900x675.jpg",
    "url": "https://www.choosechicago.com/event/voila-the-improvised-musical/2023-11-24/",
    "start_date": "2023-11-25T04:00:00Z",
    "end_date": "2023-11-25T05:30:00Z",
    "location": {
      "name": "The iO Theater",
      "address": "The iO Theater, 1501 N Kingsbury St, Chicago, IL 60642, USA,",
      "city": "CHICAGO",
      "state": "IL",
      "gmaps": {
        "lat": 41.908536,
        "lng": -87.6519617,
        "formatted_address": "1501 N Kingsbury St, Chicago, IL 60642, United States",
        "name": "The iO Theater",
        "place_id": "ChIJE9IESSTTD4gRFXNotCW2Sf0"
      },
      "gmaps_tries": 1,
      "pk": 34
    },
    "pk": 43
  },
  {
    "name": "Teatro Zinzanni",
    "description": "A spectacle of unforgettable performances, fantastic cuisine, and premium entertainment await you within the velvet walls of the Antique Belgian Spiegeltent in the heart of…Loop",
    "image": "https://cdn.choosechicago.com/uploads/2023/11/ChicagoPlaysFacebookKeyArt-1-900x473.jpg",
    "url": "https://www.choosechicago.com/event/teatro-zinzanni-5/2023-11-25/",
    "start_date": "2023-11-25T18:00:00Z",
    "end_date": "2023-11-25T21:00:00Z",
    "location": {
      "name": "Spiegeltent – Cambria Hotel",
      "address": "32 W. Randolph",
      "city": "CHICAGO",
      "state": "IL",
      "gmaps": {
        "lat": 41.884722,
        "lng": -87.6290486,
        "formatted_address": "32 W Randolph St, Chicago, IL 60601, United States",
        "name": "Cambria Hotel Chicago Loop - Theatre District",
        "place_id": "ChIJrU7gr7osDogRY1NoNI9zcq0"
      },
      "gmaps_tries": 1,
      "pk": 35
    },
    "pk": 44
  },
  {
    "name": "Vienna Boys Choir: Christmas in Vienna",
    "description": "The Vienna Boys Choir rings in the holiday season with a program drawn from its repertoire of Austrian folk songs, classical masterpieces and yuletide favorites.…",
    "image": "https://cdn.choosechicago.com/uploads/2023/10/l06uddup-900x497.png",
    "url": "https://www.choosechicago.com/event/vienna-boys-choir-christmas-in-vienna/",
    "start_date": "2023-11-25T20:00:00Z",
    "end_date": "2023-11-25T22:00:00Z",
    "location": {
      "name": "Chicago Symphony Orchestra",
      "address": "220 S. Michigan, Chicago, IL, 60604",
      "city": "CHICAGO",
      "state": "IL",
      "gmaps": {
        "lat": 41.8789876,
        "lng": -87.625065,
        "formatted_address": "220 S Michigan Ave, Chicago, IL 60604, United States",
        "name": "Chicago Symphony Orchestra",
        "place_id": "ChIJ03xbwqMsDogRn80hvd2Xg18"
      },
      "gmaps_tries": 1,
      "pk": 31
    },
    "pk": 45
  },
  {
    "name": "Teatro Zinzanni",
    "description": "A spectacle of unforgettable performances, fantastic cuisine, and premium entertainment await you within the velvet walls of the Antique Belgian Spiegeltent in the heart of…",
    "image": "https://cdn.choosechicago.com/uploads/2019/08/placehoder-900x425.jpg",
    "url": "https://www.choosechicago.com/event/teatro-zinzanni-4/2023-11-25/",
    "start_date": "2023-11-26T00:30:00Z",
    "end_date": "2023-11-26T04:00:00Z",
    "location": {
      "name": "32 W Randolph St",
      "address": "32 W Randolph St",
      "city": "CHICAGO",
      "state": "IL",
      "gmaps": {
        "lat": 41.884718,
        "lng": -87.629058,
        "formatted_address": "32 W Randolph St, Chicago, IL 60601, USA",
        "name": "32 W Randolph St",
        "place_id": "ChIJH37_rrosDogR7OqirL-z1RM"
      },
      "gmaps_tries": 1,
      "pk": 28
    },
    "pk": 46
  },
  {
    "name": "The Infinite Wrench",
    "description": "Don’t miss the longest running late-night show in Chicago! At The Infinite Wrench you’ll see 30 original plays in 60 minutes written and performed by…Andersonville",
    "image": "https://cdn.choosechicago.com/uploads/2023/04/TIW_promo-900x400.png",
    "url": "https://www.choosechicago.com/event/the-infinite-wrench/2023-11-25/",
    "start_date": "2023-11-26T01:00:00Z",
    "end_date": "2023-11-26T02:00:00Z",
    "location": {
      "name": "Neo-Futurist Theater",
      "address": "5153 N. Ashland Ave.",
      "city": "CHICAGO",
      "state": "IL",
      "gmaps": {
        "lat": 41.9760012,
        "lng": -87.6692801,
        "formatted_address": "5153 N Ashland Ave, Chicago, IL 60640, United States",
        "name": "The Neo-Futurists",
        "place_id": "ChIJnVQXiifSD4gR6kTLZjehw4A"
      },
      "gmaps_tries": 1,
      "pk": 30
    },
    "pk": 47
  },
  {
    "name": "Léo Lins comes to the Den Theatre",
    "description": "Léo Lins began his artistic journey as a magician, however, his knack for writing jokes couldn’t be contained. During his college years, Léo started penning…Wicker Park / Bucktown",
    "image": "https://cdn.choosechicago.com/uploads/2023/08/image0-McKenna-Pitcavage.jpeg",
    "url": "https://www.choosechicago.com/event/leo-lins-comes-to-the-den-theatre/",
    "start_date": "2023-11-26T01:15:00Z",
    "end_date": "2023-11-26T02:30:00Z",
    "location": {
      "name": "The Den Theatre",
      "address": "1331 North Milwaukee Avenue",
      "city": "CHICAGO",
      "state": "IL",
      "gmaps": {
        "lat": 41.9061861,
        "lng": -87.670475,
        "formatted_address": "1331 N Milwaukee Ave, Chicago, IL 60622, United States",
        "name": "The Den Theatre",
        "place_id": "ChIJsxdugMXSD4gRYXZPrSF9scA"
      },
      "gmaps_tries": 1,
      "pk": 36
    },
    "pk": 48
  },
  {
    "name": "Baby Wants Candy! The Original Completely Improvised Musical",
    "description": "“CRITICS’ PICK. TRULY AMAZING!” – New York Times “BEST VISITING IMPROV COMEDY!”– TimeOut NY “HIGHLY RECOMMENDED!” – The Onion “★★★★★” THEY ARE AN ENTERTAINMENT PHENOMENON AND I…Old Town",
    "image": "https://cdn.choosechicago.com/uploads/2019/08/placehoder-900x425.jpg",
    "url": "https://www.choosechicago.com/event/baby-wants-candy-the-original-completely-improvised-musical/2023-11-25/",
    "start_date": "2023-11-26T01:30:00Z",
    "end_date": "2023-11-26T02:30:00Z",
    "location": {
      "name": "The Second City",
      "address": "1616 N. Wells St. , Chicago, IL, 60614",
      "city": "CHICAGO",
      "state": "IL",
      "gmaps": {
        "lat": 41.9113282,
        "lng": -87.6354249,
        "formatted_address": "230 W North Ave, Chicago, IL 60614, United States",
        "name": "The Second City",
        "place_id": "ChIJFR3zFUHTD4gRiSGHi3J4B7Y"
      },
      "gmaps_tries": 1,
      "pk": 37
    },
    "pk": 49
  },
  {
    "name": "Clued In",
    "description": "After getting a single suggestion, the cast of six professional comedians asks the audience to choose a detective. Enjoy as they invent a tale of…Old Town",
    "image": "https://cdn.choosechicago.com/uploads/2023/04/DSCF5911-900x509.jpg",
    "url": "https://www.choosechicago.com/event/clued-in/2023-11-25/",
    "start_date": "2023-11-26T01:30:00Z",
    "end_date": "2023-11-26T02:30:00Z",
    "location": {
      "name": "The Second City",
      "address": "1616 N. Wells St., Theater on the Second Floor",
      "city": "CHICAGO",
      "state": "IL",
      "gmaps": {
        "lat": 41.9113282,
        "lng": -87.6354249,
        "formatted_address": "230 W North Ave, Chicago, IL 60614, United States",
        "name": "The Second City",
        "place_id": "ChIJFR3zFUHTD4gRiSGHi3J4B7Y"
      },
      "gmaps_tries": 1,
      "pk": 38
    },
    "pk": 50
  },
  {
    "name": "Fantasia in Concert",
    "description": "Join us for a thrilling performance of Disney’s groundbreaking marriage of symphonic music and animation, Fantasia. Magnificent repertoire from the original 1940 version and Fantasia 2000, including The…",
    "image": "https://cdn.choosechicago.com/uploads/2023/10/9soejpvm-900x497.png",
    "url": "https://www.choosechicago.com/event/fantasia-in-concert/2023-11-25/",
    "start_date": "2023-11-26T01:30:00Z",
    "end_date": "2023-11-26T03:30:00Z",
    "location": {
      "name": "Chicago Symphony Orchestra",
      "address": "220 S. Michigan, Chicago, IL, 60604",
      "city": "CHICAGO",
      "state": "IL",
      "gmaps": {
        "lat": 41.8789876,
        "lng": -87.625065,
        "formatted_address": "220 S Michigan Ave, Chicago, IL 60604, United States",
        "name": "Chicago Symphony Orchestra",
        "place_id": "ChIJ03xbwqMsDogRn80hvd2Xg18"
      },
      "gmaps_tries": 1,
      "pk": 31
    },
    "pk": 51
  },
  {
    "name": "Tales and Tunes",
    "description": "Pet Projects presents two shows in one: Comic Sonya White travels the country sharing her real-life experiences—and what a life she is living! That includes…",
    "image": "https://cdn.choosechicago.com/uploads/2023/10/52428-900x450.jpeg",
    "url": "https://www.choosechicago.com/event/tales-and-tunes/",
    "start_date": "2023-11-26T02:00:00Z",
    "end_date": "2023-11-26T04:00:00Z",
    "location": {
      "name": "Skokie Theatre",
      "address": "7924 Lincoln Ave, Skokie, IL, 60077",
      "city": "CHICAGO",
      "state": "IL",
      "gmaps": {
        "lat": 42.0253807,
        "lng": -87.7557782,
        "formatted_address": "7924 Lincoln Ave, Skokie, IL 60077, United States",
        "name": "Skokie Theatre - Performing Arts Center",
        "place_id": "ChIJ4bfTEhjPD4gRvrCvmKlzUCo"
      },
      "gmaps_tries": 1,
      "pk": 32
    },
    "pk": 52
  }
]